"","rowid","place_name","count","geo_address","scale","latitude","longitude"
"1",1,"United States",287,"Washington DC, USA","country",38.9071923,-77.0368707
"2",2,"Philippines",253,"Metro Manila, Philippines","country",14.6090537,121.0222565
"3",3,"New York",120,"New York, New York, USA","city",40.7127753,-74.0059728
"4",4,"Missouri",105,"Jefferson City, Missouri, USA","state",38.5767017,-92.1735164
"5",5,"Germany",76,"Berlin, Germany","country",52.5200066,13.404954
"6",6,"Washington DC",72,"Washington DC, USA","city",38.9071923,-77.0368707
"7",7,"Japan",58,"Tokio, Japan","country",35.6764225,139.650027
"8",8,"France",54,"Paris, France","country",48.856614,2.3522219
"9",9,"Chicago",51,"Chicago, Illinois, USA","city",41.8781136,-87.6297982
"10",10,"China",51,"Beijing, China","country",39.904211,116.407395
"11",11,"Mexico",43,"Mexico City, Mexico","country",19.4326077,-99.133208
"12",12,"United Kingdom",42,"London, UK","country",51.5072178,-0.1275862
"13",13,"Kansas",39,"Topeka, Kansas, USA","state",39.0473451,-95.6751576
"14",14,"Texas",32,"Austin, Texas, USA","state",30.267153,-97.7430608
"15",15,"Paris",30,"Paris, France","city",48.856614,2.3522219
"16",16,"California",27,"Sacramento, California, USA","state",38.5815719,-121.4943996
"17",17,"Ireland",25,"Dublin, Ireland","country",53.3498053,-6.2603097
"18",18,"Russia",25,"Moscow, Russia","country",55.755826,37.6173
"19",19,"Brazil",22,"Brasilia, Brazil","country",-15.7975154,-47.8918874
"20",20,"San Francisco",22,"San Francisco, California, USA","city",37.7749295,-122.4194155
"21",21,"Italy",20,"Rome, Italy","country",41.9027835,12.4963655
"22",22,"Ohio",20,"Columbus, Ohio, USA","state",39.9611755,-82.9987942
"23",23,"Canada",19,"Ottawa, Canada","country",45.4215296,-75.6971931
"24",24,"London",19,"London, UK","city",51.5072178,-0.1275862
"25",25,"Cocopah",18,"Cocopah Reservation","native_group",32.6213992,-114.7647516
"26",26,"Indiana",18,"Indianapolis, Indiana, USA","state",39.768403,-86.158068
"27",27,"New Orleans",18,"New Orleans, Louisiana, USA","city",29.9510658,-90.0715323
"28",28,"Austria-Hungary",15,"Vienna, Austria","country",48.2081743,16.3738189
"29",29,"Netherlands",15,"The Hague, Netherlands","country",52.0704978,4.3006999
"30",30,"Toronto",15,"Toronto, Canada","city",43.653226,-79.3831843
"31",31,"Alaska",14,"Juneau, Alaska, USA","state",58.3004933,-134.4201306
"32",32,"Belgium",14,"Brussels, Belgium","country",50.8476424,4.3571696
"33",33,"Illinois",14,"Springfield, Illinois, USA","state",39.7817213,-89.6501481
"34",34,"Kentucky",14,"Frankfort, Kentucky, USA","state",38.2009055,-84.8732835
"35",35,"Boston",11,"Boston, Massachusetts, USA","city",42.3600825,-71.0588801
"36",36,"Colorado",11,"Denver, Colorado, USA","state",39.7392358,-104.990251
"37",37,"Cuba",10,"Havana, Cuba","country",23.1135925,-82.3665956
"38",38,"Hopi",10,"Hopi Reservation","native_group",35.875584,-110.6067762
"39",39,"Oklahoma",10,"Oklahoma City, Oklahoma, USA","state",35.4675602,-97.5164276
"40",40,"Sioux",10,"Cheyenne River Reservation","native_group",45.0833144,-101.1251489
"41",41,"Berlin",9,"Berlin, Germany","city",52.5200066,13.404954
"42",42,"Latin America",9,"Latin America","continent",-4.4420385,-61.3268535
"43",43,"Virginia",9,"Richmond, Virginia, USA","state",37.5407246,-77.4360481
"44",44,"Africa",8,"Africa","continent",-8.783195,34.508523
"45",45,"Europe",8,"Europe","continent",54.5259614,15.2551187
"46",46,"New Jersey",8,"Trenton, New Jersey, USA","state",40.2205824,-74.759717
"47",47,"Sweden",8,"Stockholm, Sweden","country",59.3293235,18.0685808
"48",48,"Arkansas",7,"Little Rock, Arkansas, USA","state",34.7444618,-92.2880157
"49",49,"Jerusalem",7,"Jerusalem, Israel","city",31.768319,35.21371
"50",50,"Philadelphia",7,"Philadelphia, Pennsylvania, USA","city",39.9525839,-75.1652215
"51",51,"Utah",7,"Salt Lake City, Utah, USA","state",40.7607793,-111.8910474
"52",52,"Montana",6,"Helena, Montana, USA","state",46.5891452,-112.0391057
"53",53,"Pennsylvania",6,"Philadelphia, Pennsylvania, USA","state",39.9525839,-75.1652215
"54",54,"Cincinnati",5,"Cincinnati, Ohio, USA","city",39.1031182,-84.5120196
"55",55,"Iowa",5,"Des Moine, Iowa, USA","state",41.5868353,-93.6249593
"56",56,"Minneapolis",5,"Minneapolis, Minnesota, USA","city",44.977753,-93.2650108
"57",57,"Pittsburg",5,"Pittsburg, Pennsylvania, USA","city",40.4406248,-79.9958864
"58",58,"Rome",5,"Rome, Italy","city",41.9027835,12.4963655
"59",59,"Spain",5,"Madrid, Spain","country",40.4167754,-3.7037902
"60",60,"Springfield",5,"Springfield, Illinois, USA","city",39.7817213,-89.6501481
"61",61,"Arizona",4,"Phoenix, Arizona, USA","state",33.4483771,-112.0740373
"62",62,"Denver",4,"Denver, Colorado, USA","city",39.7392358,-104.990251
"63",63,"Georgia",4,"Atlanta, Georgia, USA","state",33.748752,-84.3876845
"64",64,"Louisville",4,"Louisville, Kentucky, USA","city",38.2526647,-85.7584557
"65",65,"Maine",4,"Augusta, Maine, USA","state",44.3106241,-69.7794897
"66",66,"Maryland",4,"Annapolis, Maryland, USA","state",38.9784453,-76.4921829
"67",67,"Nevada",4,"Carson City, Nevada, USA","state",39.1637984,-119.7674034
"68",68,"New Hampshire",4,"Concord, New Hampshire, USA","state",43.2081366,-71.5375718
"69",69,"Persia",4,"Tehran, Persia","country",35.7218583,51.3346954
"70",70,"Syria",4,"Damascus, Syria","country",33.5138073,36.2765279
"71",71,"Asia",3,"Asia","continent",34.047863,100.6196553
"72",72,"Atlanta",3,"Atlanta, Georgia, USA","city",33.748752,-84.3876845
"73",73,"Connecticut",3,"Hartford, Connecticut, USA","state",41.7658043,-72.6733723
"74",74,"Dallas",3,"Dallas, Texas, USA","city",32.7766642,-96.7969879
"75",75,"Havana",3,"Havana, Cuba","city",23.1135925,-82.3665956
"76",76,"Houston",3,"Houston, Texas, USA","city",29.7604267,-95.3698028
"77",77,"Milwaukee",3,"Milwaukee, Wisconsin, USA","city",43.0389025,-87.9064736
"78",78,"Minnesota",3,"Saint Paul, Minnesota, USA","state",44.9537029,-93.0899578
"79",79,"Mississippi",3,"Jackson, Mississippi, USA","state",32.2987573,-90.1848103
"80",80,"Norway",3,"Oslo, Norway","country",59.9138688,10.7522454
"81",81,"Oregon",3,"Salem, Oregon, USA","state",44.9428975,-123.0350963
"82",82,"Pima-Maricopa",3,"Salt River Pima-Maricopa Indian Community","native_group",33.516711,-111.7673622
"83",83,"Sacramento",3,"Sacramento, California, USA","city",38.5815719,-121.4943996
"84",84,"Vienna",3,"Vienna, Austria","city",48.2081743,16.3738189
"85",85,"Alton",2,"Alton, Illinois, USA","city",38.8906038,-90.1842764
"86",86,"Argentina",2,"Buenos Aires, Argentina","country",-34.6036844,-58.3815591
"87",87,"Baltimore",2,"Baltimore, Maryland, USA","city",39.2903848,-76.6121893
"88",88,"Birmingham",2,"Birmingham, Alabama, USA","city",33.5185892,-86.8103567
"89",89,"Bridgeton",2,"Bridgeton, New Jersey, USA","city",39.427337,-75.2340768
"90",90,"Cairo",2,"Cairo, Illinois, USA","city",37.0053293,-89.1764608
"91",91,"Denmark",2,"Copenhagen, Denmark","country",55.6760968,12.5683371
"92",92,"Idaho",2,"Boise, Idaho, USA","state",43.6150186,-116.2023137
"93",93,"Inner Mongolia",2,"Inner Mongolia","geo_region",40.8173299,111.76522
"94",94,"Kwakiutl",2,"British Columbia, Canada","native_group",53.7266683,-127.6476206
"95",95,"Los Angeles",2,"Los Angeles, California, USA","city",34.0549076,-118.242643
"96",96,"Muscogee Nation",2,"Muscogee (Creek) Nation, Oklahoma, USA","native_group",35.0077519,-97.092877
"97",97,"Nashville",2,"Nashville, Tennessee, USA","city",36.1626638,-86.7816016
"98",98,"Nicaragua",2,"Managua, Nicaragua","country",12.1149926,-86.2361744
"99",99,"Patagonia",2,"Santa Cruz, Argentina, Patagonia","geo_region",-48.7736825,-69.1917167
"100",100,"Portugal",2,"Lisbon, Portugal","country",38.7222524,-9.1393366
"101",101,"Richmond",2,"Richmond, Kentucky, USA","city",37.7478572,-84.2946539
"102",102,"Switzerland",2,"Bern, Switzerland","country",46.9479739,7.4474468
"103",103,"Venice",2,"Venice, Italy","city",45.4408474,12.3155151
"104",104,"Vermont",2,"Montpelier, Vermont, USA","state",44.2600593,-72.5753869
"105",105,"Wisconsin",2,"Madison, Wisconsin, USA","state",43.0721661,-89.4007501
"106",106,"Zimbabwe",2,"Harare, Zimbabwe","country",-17.8216288,31.0492259
